[
  {
    "city": "Tokyo",
    "country": "Japan",
    "latitude": 35.6895,
    "longitude": 139.6917
  },
  {
    "city": "Osaka",
    "country": "Japan",
    "latitude": 34.6937,
    "longitude": 135.5023
  },
  {
    "city": "Kyoto",
    "country": "Japan",
    "latitude": 35.0116,
    "longitude": 135.7681
  },
  {
    "city": "Sapporo",
    "country": "Japan",
    "latitude": 43.0618,
    "longitude": 141.3545
  },
  {
    "city": "Fukuoka",
    "country": "Japan",
    "latitude": 33.5904,
    "longitude": 130.4017
  },
  {
    "city": "Beijing",
    "country": "China",
    "latitude": 39.9042,
    "longitude": 116.4074
  },
  {
    "city": "Shanghai",
    "country": "China",
    "latitude": 31.2304,
    "longitude": 121.4737
  },
  {
    "city": "Guangzhou",
    "country": "China",
    "latitude": 23.1291,
    "longitude": 113.2644
  },
  {
    "city": "Shenzhen",
    "country": "China",
    "latitude": 22.5431,
    "longitude": 114.0579
  },
  {
    "city": "Hangzhou",
    "country": "China",
    "latitude": 30.2741,
    "longitude": 120.1551
  },
  {
    "city": "Taipei",
    "country": "Taiwan",
    "latitude": 25.0330,
    "longitude": 121.5654
  },
  {
    "city": "Taichung",
    "country": "Taiwan",
    "latitude": 24.1477,
    "longitude": 120.6736
  },
  {
    "city": "Kaohsiung",
    "country": "Taiwan",
    "latitude": 22.6273,
    "longitude": 120.3014
  },
  {
    "city": "Tainan",
    "country": "Taiwan",
    "latitude": 22.9999,
    "longitude": 120.2270
  },
  {
    "city": "Hong Kong",
    "country": "Hong Kong",
    "latitude": 22.3193,
    "longitude": 114.1694
  },
  {
    "city": "Manila",
    "country": "Philippines",
    "latitude": 14.5995,
    "longitude": 120.9842
  },
  {
    "city": "Cebu",
    "country": "Philippines",
    "latitude": 10.3157,
    "longitude": 123.8854
  },
  {
    "city": "Boracay",
    "country": "Philippines",
    "latitude": 11.9674,
    "longitude": 121.9248
  },
  {
    "city": "Palawan",
    "country": "Philippines",
    "latitude": 9.8349,
    "longitude": 118.7384
  },
  {
    "city": "Bali",
    "country": "Indonesia",
    "latitude": -8.3405,
    "longitude": 115.0920
  },
  {
    "city": "Jakarta",
    "country": "Indonesia",
    "latitude": -6.2088,
    "longitude": 106.8456
  },
  {
    "city": "Yogyakarta",
    "country": "Indonesia",
    "latitude": -7.7956,
    "longitude": 110.3695
  },
  {
    "city": "Bandung",
    "country": "Indonesia",
    "latitude": -6.9175,
    "longitude": 107.6191
  },
  {
    "city": "Bangkok",
    "country": "Thailand",
    "latitude": 13.7563,
    "longitude": 100.5018
  },
  {
    "city": "Chiang Mai",
    "country": "Thailand",
    "latitude": 18.7883,
    "longitude": 98.9853
  },
  {
    "city": "Phuket",
    "country": "Thailand",
    "latitude": 7.8804,
    "longitude": 98.3923
  },
  {
    "city": "Pattaya",
    "country": "Thailand",
    "latitude": 12.9236,
    "longitude": 100.8825
  },
  {
    "city": "Hanoi",
    "country": "Vietnam",
    "latitude": 21.0285,
    "longitude": 105.8542
  },
  {
    "city": "Ho Chi Minh City",
    "country": "Vietnam",
    "latitude": 10.8231,
    "longitude": 106.6297
  },
  {
    "city": "Da Nang",
    "country": "Vietnam",
    "latitude": 16.0544,
    "longitude": 108.2022
  },
  {
    "city": "Ha Long Bay",
    "country": "Vietnam",
    "latitude": 20.9101,
    "longitude": 107.1839
  },
  {
    "city": "Singapore",
    "country": "Singapore",
    "latitude": 1.3521,
    "longitude": 103.8198
  },
  {
    "city": "Kuala Lumpur",
    "country": "Malaysia",
    "latitude": 3.1390,
    "longitude": 101.6869
  },
  {
    "city": "Johor Bahru",
    "country": "Malaysia",
    "latitude": 1.4927,
    "longitude": 103.7414
  },
  {
    "city": "Penang",
    "country": "Malaysia",
    "latitude": 5.4141,
    "longitude": 100.3288
  },
  {
    "city": "Kota Kinabalu",
    "country": "Malaysia",
    "latitude": 5.9804,
    "longitude": 116.0735
  },
  {
    "city": "New York",
    "country": "United States",
    "latitude": 40.7128,
    "longitude": -74.0060
  },
  {
    "city": "Los Angeles",
    "country": "United States",
    "latitude": 34.0522,
    "longitude": -118.2437
  },
  {
    "city": "Las Vegas",
    "country": "United States",
    "latitude": 36.1699,
    "longitude": -115.1398
  },
  {
    "city": "San Francisco",
    "country": "United States",
    "latitude": 37.7749,
    "longitude": -122.4194
  },
  {
    "city": "Miami",
    "country": "United States",
    "latitude": 25.7617,
    "longitude": -80.1918
  },
  {
    "city": "Toronto",
    "country": "Canada",
    "latitude": 43.6532,
    "longitude": -79.3832
  },
  {
    "city": "Vancouver",
    "country": "Canada",
    "latitude": 49.2827,
    "longitude": -123.1207
  },
  {
    "city": "Montreal",
    "country": "Canada",
    "latitude": 45.5017,
    "longitude": -73.5673
  },
  {
    "city": "Quebec City",
    "country": "Canada",
    "latitude": 46.8139,
    "longitude": -71.2082
  },
  {
    "city": "Sydney",
    "country": "Australia",
    "latitude": -33.8688,
    "longitude": 151.2093
  },
  {
    "city": "Melbourne",
    "country": "Australia",
    "latitude": -37.8136,
    "longitude": 144.9631
  },
  {
    "city": "Brisbane",
    "country": "Australia",
    "latitude": -27.4698,
    "longitude": 153.0251
  },
  {
    "city": "Perth",
    "country": "Australia",
    "latitude": -31.9505,
    "longitude": 115.8605
  },
  {
    "city": "London",
    "country": "United Kingdom",
    "latitude": 51.5074,
    "longitude": -0.1278
  },
  {
    "city": "Edinburgh",
    "country": "United Kingdom",
    "latitude": 55.9533,
    "longitude": -3.1883
  },
  {
    "city": "Manchester",
    "country": "United Kingdom",
    "latitude": 53.4808,
    "longitude": -2.2426
  },
  {
    "city": "Liverpool",
    "country": "United Kingdom",
    "latitude": 53.4084,
    "longitude": -2.9916
  },
  {
    "city": "Berlin",
    "country": "Germany",
    "latitude": 52.5200,
    "longitude": 13.4050
  },
  {
    "city": "Munich",
    "country": "Germany",
    "latitude": 48.1351,
    "longitude": 11.5820
  },
  {
    "city": "Frankfurt",
    "country": "Germany",
    "latitude": 50.1109,
    "longitude": 8.6821
  },
  {
    "city": "Hamburg",
    "country": "Germany",
    "latitude": 53.5511,
    "longitude": 9.9937
  },
  {
    "city": "Paris",
    "country": "France",
    "latitude": 48.8566,
    "longitude": 2.3522
  },
  {
    "city": "Nice",
    "country": "France",
    "latitude": 43.7102,
    "longitude": 7.2620
  },
  {
    "city": "Lyon",
    "country": "France",
    "latitude": 45.7640,
    "longitude": 4.8357
  },
  {
    "city": "Marseille",
    "country": "France",
    "latitude": 43.2965,
    "longitude": 5.3698
  },
  {
    "city": "Rome",
    "country": "Italy",
    "latitude": 41.9028,
    "longitude": 12.4964
  },
  {
    "city": "Venice",
    "country": "Italy",
    "latitude": 45.4408,
    "longitude": 12.3155
  },
  {
    "city": "Florence",
    "country": "Italy",
    "latitude": 43.7696,
    "longitude": 11.2558
  },
  {
    "city": "Milan",
    "country": "Italy",
    "latitude": 45.4642,
    "longitude": 9.1900
  },
  {
    "city": "Madrid",
    "country": "Spain",
    "latitude": 40.4168,
    "longitude": -3.7038
  },
  {
    "city": "Barcelona",
    "country": "Spain",
    "latitude": 41.3851,
    "longitude": 2.1734
  },
  {
    "city": "Seville",
    "country": "Spain",
    "latitude": 37.3886,
    "longitude": -5.9823
  },
  {
    "city": "Valencia",
    "country": "Spain",
    "latitude": 39.4699,
    "longitude": -0.3763
  }
]